City_ID,City,Lat,Lng,Max Temp,Humidity,Cloudiness,Wind Speed,Country,Date
0,atafu village,-8.5421,-172.5159,28.03,72,100,8.41,TK,1736389846
1,blackmans bay,-43.0167,147.3167,23.62,48,100,4.37,AU,1736389847
2,port-aux-francais,-49.35,70.2167,6.64,98,100,11.81,TF,1736389849
3,punta arenas,-53.15,-70.9167,8.06,66,20,10.29,CL,1736389702
4,bethel,41.3712,-73.414,-5.95,59,0,4.63,US,1736389851
5,hawaiian paradise park,19.5933,-154.9731,25.73,82,100,3.09,US,1736389852
6,tura,25.5198,90.2201,17.57,52,0,0.89,IN,1736389853
7,prainha,-1.8,-53.48,23.41,96,100,1.72,BR,1736389854
8,ta`u,-14.2336,-169.5144,27.27,79,100,9.8,AS,1736389855
9,uliastay,47.7417,96.8444,-17.81,82,100,0.9,MN,1736389856
10,uturoa,-16.7333,-151.4333,27.95,71,76,3.44,PF,1736389857
11,isafjordur,66.0755,-23.124,-8.54,76,0,4.18,IS,1736389858
12,chonchi,-42.6128,-73.8092,11.73,89,60,1.58,CL,1736389859
13,vorgashor,67.5833,63.95,-24.5,96,39,3.42,RU,1736389860
14,al mijlad,11.0333,27.7333,17.66,21,4,4.73,SD,1736389861
15,bayevo,53.2833,80.7667,-15.25,85,100,5.18,RU,1736389862
16,hermanus,-34.4187,19.2345,17.67,85,1,3.06,ZA,1736389863
17,mariehamn,60.0973,19.9348,-0.08,93,75,2.06,AX,1736389865
18,edinburgh of the seven seas,-37.0676,-12.3116,17.47,99,95,4.94,SH,1736389866
19,whangarei,-35.7317,174.3239,23.52,54,10,3.65,NZ,1736389867
20,jamestown,42.097,-79.2353,-8.32,82,100,5.66,US,1736389840
21,adamstown,-25.066,-130.1015,23.46,84,100,10.31,PN,1736389869
22,waitangi,-43.9535,-176.5597,14.34,69,34,4.02,NZ,1736389870
23,nagqu,31.5,92.0,-9.44,20,97,1.05,CN,1736389871
24,formosa do rio preto,-11.0483,-45.1931,21.34,99,100,1.21,BR,1736389872
25,bilibino,68.0546,166.4372,-36.68,100,41,0.37,RU,1736389873
26,merizo village,13.2658,144.6691,29.99,84,38,5.42,GU,1736389874
27,anadyr,64.75,177.4833,-29.72,74,20,3.0,RU,1736389875
28,calingasta,-31.3308,-69.4078,22.28,42,80,3.26,AR,1736389876
29,albany,42.6001,-73.9662,-7.42,68,99,2.68,US,1736389842
30,ixtapa,20.7,-105.2,24.01,64,100,1.54,MX,1736389878
31,taksimo,56.3444,114.8794,-24.29,88,17,0.34,RU,1736389879
32,susuman,62.7833,148.1667,-32.44,92,98,0.4,RU,1736389881
33,geraldton,-28.7667,114.6,26.23,44,3,6.17,AU,1736389882
34,bredasdorp,-34.5322,20.0403,15.91,89,0,2.14,ZA,1736389883
35,iskateley,67.6803,53.1512,-12.87,80,100,9.25,RU,1736389885
36,tiksi,71.6872,128.8694,-22.94,93,100,7.47,RU,1736389886
37,weno,7.4515,151.8468,30.97,79,40,4.12,FM,1736389888
38,dhuusamarreeb,5.535,46.3861,19.89,87,42,5.22,SO,1736389889
39,kailua-kona,19.6406,-155.9956,27.98,69,0,3.09,US,1736389890
40,malango,-2.9627,119.9001,26.53,75,100,1.11,ID,1736389891
41,howard springs,-12.497,131.047,31.95,67,98,2.59,AU,1736389892
42,stanley,54.868,-1.6985,-3.99,87,99,3.6,GB,1736389893
43,olonkinbyen,70.9221,-8.7187,-3.61,72,98,8.23,SJ,1736389894
44,sao joao da barra,-21.6403,-41.0511,23.16,94,75,3.86,BR,1736389895
45,kittila,67.6647,24.8936,-16.33,84,75,1.03,FI,1736389781
46,khvalynsk,52.4906,48.1058,1.04,97,100,9.5,RU,1736389897
47,wailua homesteads,22.0669,-159.378,22.44,88,100,4.63,US,1736389898
48,kerikeri,-35.2268,173.9474,21.8,62,9,4.35,NZ,1736389899
49,bela,25.9333,81.9833,11.67,50,1,0.89,IN,1736389900
50,pesqueira,-8.3578,-36.6964,20.08,82,54,3.53,BR,1736389901
51,puerto ayora,-0.7393,-90.3518,24.19,94,100,4.11,EC,1736389874
52,utrik,11.2278,169.8474,26.65,83,16,9.96,MH,1736389904
53,trairi,-3.2778,-39.2689,25.78,85,65,2.98,BR,1736389903
54,west island,-12.1568,96.8225,28.99,74,100,4.12,CC,1736389906
55,crane,31.3974,-102.3501,2.49,29,82,3.55,US,1736389907
56,narre warren north,-37.9833,145.3167,31.0,35,100,2.68,AU,1736389908
57,college,64.8569,-147.8028,-14.39,81,40,0.0,US,1736389909
58,nyrob,60.733,56.7202,-3.28,95,100,5.75,RU,1736389910
59,afaahiti,-17.75,-149.2833,26.81,73,93,4.03,PF,1736389912
60,vylkove,45.4021,29.586,8.41,80,19,2.75,UA,1736389913
61,saudarkrokur,65.7461,-19.6394,-12.68,82,13,6.62,IS,1736389914
62,kapuskasing,49.4169,-82.4331,-24.95,77,0,2.57,CA,1736389915
63,invercargill,-46.4,168.35,16.68,68,76,1.34,NZ,1736389818
64,dudinka,69.4058,86.1778,-31.85,100,90,1.28,RU,1736389917
65,grytviken,-54.2811,-36.5092,6.63,60,44,1.57,GS,1736389918
66,rongelap,11.1635,166.8941,27.35,81,13,9.46,MH,1736389919
67,kodiak,57.79,-152.4072,3.73,100,100,10.29,US,1736389920
68,jumla,29.2747,82.1838,5.57,16,0,0.73,NP,1736389922
69,ushuaia,-54.8,-68.3,6.81,76,75,16.46,AR,1736389923
70,puerto natales,-51.7236,-72.4875,7.21,66,10,6.93,CL,1736389925
71,aasiaat,68.7098,-52.8699,-8.18,84,100,8.5,GL,1736389926
72,remire-montjoly,4.9167,-52.2667,26.02,78,20,2.06,GF,1736389927
73,port alfred,-33.5906,26.891,16.77,95,0,0.61,ZA,1736389928
74,anloga,5.7947,0.8973,26.66,88,43,4.11,GH,1736389929
75,georgetown,5.4112,100.3354,28.96,57,20,3.13,MY,1736389631
76,kill devil hills,36.0307,-75.676,0.55,55,0,5.14,US,1736389931
77,la junta,37.985,-103.5438,-11.84,92,0,4.12,US,1736389932
78,margaret river,-33.95,115.0667,22.91,45,31,4.99,AU,1736389933
79,haiku-pauwela,20.9219,-156.3051,27.01,63,20,6.69,US,1736389934
80,vilyuchinsk,52.9306,158.4028,-2.85,79,51,2.08,RU,1736389935
81,aykhal,66.0,111.5,-14.37,96,100,2.55,RU,1736389936
82,katsuura,35.1333,140.3,10.61,55,1,12.95,JP,1736389937
83,albertina,-22.2008,-46.6158,17.18,91,35,2.32,BR,1736389938
84,gebeit,21.0667,36.3167,12.94,70,100,2.62,SD,1736389939
85,nueva esperanza,15.2667,-87.6,22.26,99,100,0.9,HN,1736389923
86,elliot lake,46.3834,-82.6331,-16.64,61,1,2.55,CA,1736389941
87,ust'-uda,54.1742,103.0304,-20.93,98,88,0.58,RU,1736389942
88,ancud,-41.8697,-73.8203,12.97,79,93,2.94,CL,1736389681
89,ciudad insurgentes,25.2625,-111.7753,14.04,75,1,3.32,MX,1736389944
90,mount gambier,-37.8333,140.7667,25.23,35,100,4.62,AU,1736389945
91,yuto,-23.6434,-64.4719,26.91,54,83,0.93,AR,1736389947
92,kununurra,-15.7667,128.7333,34.99,52,100,2.06,AU,1736389948
93,carutapera,-1.195,-46.02,24.31,94,90,2.1,BR,1736389949
94,tubarjal,30.4999,38.216,7.27,48,71,3.22,SA,1736389950
95,qaqortoq,60.7167,-46.0333,-9.64,73,98,2.92,GL,1736389951
96,lebu,-37.6167,-73.65,15.48,94,2,5.24,CL,1736389952
97,constantia,44.1833,28.65,6.5,76,0,3.01,RO,1736389656
98,longyearbyen,78.2186,15.6401,-4.09,68,75,5.14,SJ,1736389954
99,karachi,24.9056,67.0822,9.9,76,3,2.06,PK,1736389921
100,saipan,15.1355,145.701,30.39,81,40,6.17,MP,1736389956
101,palmer,42.1584,-72.3287,-7.8,53,75,8.23,US,1736389957
102,chitose,42.8194,141.6522,0.05,43,20,6.69,JP,1736389959
103,nemuro,43.3236,145.575,-1.37,59,32,13.39,JP,1736389960
104,albu kamal,34.45,40.9186,8.69,58,0,2.11,SY,1736389961
105,yellowknife,62.456,-114.3525,-18.66,92,0,6.71,CA,1736389962
106,nykoping,58.753,17.0079,-0.84,100,75,1.54,SE,1736389964
107,fort mcmurray,56.7268,-111.381,0.77,74,100,4.12,CA,1736389815
108,horta,38.5333,-28.6333,18.9,93,100,10.28,PT,1736389967
109,iqaluit,63.7506,-68.5145,-21.84,76,75,10.8,CA,1736389968
110,archangelos,36.2149,28.1149,11.99,80,100,0.96,GR,1736389969
111,east ballina,-28.8667,153.5833,24.9,75,22,4.32,AU,1736389970
112,jijiga,9.35,42.8,15.07,69,0,3.97,ET,1736389971
113,inarajan village,13.2736,144.7484,30.22,84,44,5.55,GU,1736389972
114,bochum,51.4833,7.2167,1.25,97,100,3.35,DE,1736389817
115,fada,7.25,4.0667,20.74,69,25,0.34,NG,1736389974
116,acajutla,13.5928,-89.8275,26.51,72,92,2.36,SV,1736389893
117,puerto san jose,13.9256,-90.8244,26.09,83,89,2.3,GT,1736389976
118,revda,56.801,59.9303,-2.62,90,100,6.13,RU,1736389978
119,kailahun,8.2833,-10.5667,18.26,71,13,0.25,SL,1736389979
120,bezenchuk,52.982,49.4333,1.31,94,100,9.2,RU,1736389980
121,ngereklmadel,7.4883,134.4856,30.05,74,75,4.12,PW,1736389981
122,murzuq,25.9155,13.9184,9.09,69,0,3.57,LY,1736389982
123,zapolyarnyy,69.4154,30.8136,-18.29,95,92,2.1,RU,1736389983
124,cody,44.5263,-109.0565,-1.88,91,100,5.66,US,1736389984
125,meadow lakes,61.6247,-149.6011,1.93,59,0,4.63,US,1736389985
126,bikenibeu village,1.3673,173.1241,30.98,66,40,3.6,KI,1736389987
127,fiambala,-27.6871,-67.6149,23.42,55,37,3.9,AR,1736389988
128,aral,40.5156,81.2636,-5.25,94,45,2.81,CN,1736389990
129,ovelgonne,53.3419,8.4218,1.77,97,100,2.15,DE,1736389991
130,kharp,66.8014,65.8081,-27.03,100,58,1.2,RU,1736389992
131,santana,-0.0583,-51.1817,25.1,94,40,2.57,BR,1736389993
132,port-vila,-17.7338,168.3219,28.78,61,75,6.69,VU,1736389994
133,lucea,18.451,-78.1736,24.92,76,71,4.99,JM,1736389996
134,nova vicosa,-17.8919,-39.3719,25.07,88,100,5.04,BR,1736389997
135,mount isa,-20.7333,139.5,37.87,28,3,4.12,AU,1736389878
136,papatowai,-46.5619,169.4708,14.57,66,80,2.41,NZ,1736389999
137,whitehorse,60.7161,-135.0538,-2.57,86,75,7.2,CA,1736390000
138,lata,40.1629,-8.3327,10.55,98,98,1.97,PT,1736390001
139,st. john's,47.5649,-52.7093,2.21,93,100,6.69,CA,1736389971
140,mauganj,24.6833,81.8833,12.78,39,0,1.34,IN,1736390003
141,sitia,35.2,26.0986,13.41,77,18,1.79,GR,1736390004
142,pakse,15.1167,105.7833,22.08,68,20,1.03,LA,1736390005
143,selkirk,50.1436,-96.8845,-9.9,86,98,3.13,CA,1736390007
144,cabugao,17.7931,120.4578,29.38,59,100,1.42,PH,1736390009
145,dunedin,-45.8742,170.5036,12.15,78,57,2.99,NZ,1736390010
146,maturin,9.75,-63.1767,24.91,88,99,1.54,VE,1736390011
147,kontiolahti,62.7602,29.8471,-11.03,92,75,2.57,FI,1736389872
148,ingeniero jacobacci,-41.3427,-69.5448,18.22,46,37,7.12,AR,1736390013
149,tolanaro,-25.0319,46.9987,25.04,83,75,0.0,MG,1736390014
150,al jawf,29.5,38.75,6.65,55,6,2.79,SA,1736390015
151,fale old settlement,-9.3852,-171.2468,28.27,72,100,9.13,TK,1736390016
152,enewetak,11.3474,162.3373,27.55,83,2,8.92,MH,1736390017
153,hithadhoo,-0.6,73.0833,27.49,76,30,2.51,MV,1736390018
154,buka,40.8108,69.1986,-2.6,61,0,3.03,UZ,1736390019
155,klyuchi,52.2667,79.1667,-12.84,81,100,6.29,RU,1736390020
156,lira,2.235,32.9097,19.48,39,92,2.18,UG,1736390021
157,turpan,42.9333,89.1667,-0.27,35,100,1.2,CN,1736390022
158,hasaki,35.7333,140.8333,11.16,37,0,8.86,JP,1736390023
159,kavaratti,10.5669,72.642,26.48,74,51,2.39,IN,1736390024
160,mejit,10.2753,170.8646,26.97,79,4,10.1,MH,1736390025
161,martapura,-3.4167,114.85,27.05,89,75,2.06,ID,1736389753
162,andkhoy,36.9529,65.1238,1.95,82,0,2.7,AF,1736390027
163,yeraliyev,43.2,51.65,0.35,57,0,9.97,KZ,1736390028
164,ormara,25.2088,64.6357,19.8,28,0,3.01,PK,1736390029
165,tazacorte,28.629,-17.9293,16.54,67,0,4.63,ES,1736390030
166,verkhnevilyuysk,63.4453,120.3167,-24.74,95,98,1.76,RU,1736390032
167,ilulissat,69.2167,-51.1,-6.99,93,100,5.66,GL,1736390033
168,mersa matruh,31.3525,27.2453,16.11,77,40,4.12,EG,1736390034
169,viedma,-40.8135,-62.9967,27.15,47,50,6.7,AR,1736389737
170,strathfieldsaye,-36.8,144.3667,30.09,23,100,2.52,AU,1736390037
171,tutoia,-2.7619,-42.2744,26.11,87,100,5.14,BR,1736390038
172,hammerfest,70.6634,23.6821,-8.75,53,7,0.0,NO,1736390039
173,iskilip,40.7353,34.4739,4.61,74,28,0.35,TR,1736390040
174,changping,40.2186,116.2197,-3.17,22,0,3.78,CN,1736390041
175,vilyuysk,63.7553,121.6247,-24.43,94,97,2.3,RU,1736390042
176,saldanha,-33.0117,17.9442,15.03,91,1,0.41,ZA,1736390043
177,borogontsy,62.6683,131.1683,-35.3,97,80,0.36,RU,1736390044
178,port elizabeth,-33.918,25.5701,16.84,93,0,2.06,ZA,1736390030
179,khilok,51.3674,110.4676,-17.4,82,11,1.27,RU,1736390046
180,thompson,55.7435,-97.8558,-7.91,93,100,2.06,CA,1736390047
181,huilong,31.8111,121.655,4.01,46,16,8.39,CN,1736390048
182,ryotsu-minato,38.0833,138.4333,2.5,81,99,6.73,JP,1736390049
183,lihue,21.9789,-159.3672,22.77,88,100,4.63,US,1736390050
184,rio grande,-32.035,-52.0986,19.7,72,1,5.04,BR,1736389764
185,fort bragg,35.139,-79.006,-0.1,57,0,4.02,US,1736390054
186,xinzo de limia,42.0635,-7.7246,9.57,85,94,5.41,ES,1736390055
187,emerald,-23.5333,148.1667,34.87,28,0,4.23,AU,1736390056
188,port mathurin,-19.6833,63.4167,26.48,85,11,10.57,MU,1736390057
189,baiculesti,45.0667,24.7,5.44,88,41,0.7,RO,1736390058
190,vernon,50.2581,-119.2691,1.53,83,59,0.46,CA,1736390059
191,veraval,20.9,70.3667,19.31,37,35,3.0,IN,1736390060
192,ulsteinvik,62.3432,5.8487,-2.36,76,84,1.34,NO,1736390061
193,tan-tan,28.438,-11.1032,14.67,43,100,1.58,MA,1736390062
194,ribeira grande,38.5167,-28.7,19.32,93,100,10.28,PT,1736389849
195,flin flon,54.7682,-101.865,0.16,84,100,6.37,CA,1736390064
196,gaigeturi,33.4644,126.3183,3.03,65,75,9.26,KR,1736390065
197,badger,64.8,-147.5333,-14.44,85,20,0.0,US,1736390066
198,nejo,9.5,35.5,13.65,49,43,1.6,ET,1736390067
199,ramanuj ganj,23.8,83.7,13.33,32,3,0.85,IN,1736390068
200,keflavik,64.0049,-22.5624,-5.76,53,0,2.57,IS,1736390069
201,ofunato,39.0717,141.7167,2.19,66,98,2.16,JP,1736390070
202,sisimiut,66.9395,-53.6735,-8.6,93,100,3.75,GL,1736389873
203,minas de marcona,-15.2119,-75.1103,15.38,87,88,5.78,PE,1736390073
204,sao martinho,39.5144,-9.1311,14.69,96,78,0.45,PT,1736390074
205,gadzhiyevo,69.2551,33.3362,-13.65,99,96,2.65,RU,1736390075
206,bafra,41.5678,35.9069,9.95,58,8,3.41,TR,1736390077
207,walvis bay,-22.9575,14.5053,15.53,88,100,2.06,NA,1736390079
208,canete,-37.8,-73.4,13.84,89,7,1.55,CL,1736390080
209,koper,45.5469,13.7294,13.06,93,100,2.06,SI,1736390081
210,amahai,-3.3333,128.9167,28.94,75,80,2.39,ID,1736390082
211,ola,59.5833,151.2833,-13.77,71,26,3.98,RU,1736389993
212,chania,35.5122,24.0156,25.6,87,40,0.0,GR,1736390084
213,diamantino,-14.4086,-56.4461,22.24,97,100,1.43,BR,1736390085
214,motozintla,15.3667,-92.2333,14.01,95,63,2.86,MX,1736390086
215,mathba,22.2855,89.9629,18.65,48,0,3.51,BD,1736390087
216,pechora,65.1472,57.2244,-8.87,75,100,7.26,RU,1736390088
217,amga,60.8953,131.9608,-31.47,98,100,0.55,RU,1736390090
218,mili,6.0815,171.735,27.59,78,97,9.88,MH,1736390091
219,bismarck,46.8083,-100.7837,-0.75,76,0,4.12,US,1736390093
220,srandakan,-7.9386,110.2506,28.62,71,100,0.3,ID,1736390095
221,carnarvon,-24.8667,113.6333,29.03,44,0,8.73,AU,1736390096
222,ust-nera,64.5667,143.2,-32.63,97,63,1.22,RU,1736389935
223,mana,5.6592,-53.7767,25.35,72,48,3.57,GF,1736390099
224,progreso,21.2833,-89.6667,22.26,65,89,6.21,MX,1736390100
225,hamilton,39.1834,-84.5333,-7.46,83,20,2.57,US,1736389941
226,brotas,-22.2842,-48.1267,19.94,90,8,3.36,BR,1736390102
227,airdrie,55.866,-3.9803,-5.12,92,37,1.46,GB,1736390103
228,cabo san lucas,22.8909,-109.9124,20.98,55,75,5.14,MX,1736389872
229,alice springs,-23.7,133.8833,37.75,19,20,4.12,AU,1736390106
230,matoury,4.8483,-52.3317,25.98,78,20,3.09,GF,1736390107
231,fumel,44.4986,0.9651,12.16,71,100,6.06,FR,1736390108
232,acarau,-2.8856,-40.12,26.01,85,70,3.92,BR,1736390109
233,slave lake,55.2834,-114.769,0.99,64,0,6.17,CA,1736390111
234,monrovia,6.3005,-10.7969,26.33,84,37,1.39,LR,1736390112
235,saginaw,43.3334,-84.0333,-10.86,70,0,3.6,US,1736390113
236,qamdo,31.1667,97.2333,-6.58,39,92,2.51,CN,1736390114
237,santa terezinha,-29.9002,-50.0904,22.28,74,98,6.24,BR,1736390115
238,halvad,23.0167,71.1833,14.06,35,42,3.58,IN,1736390116
239,taroa,8.7058,171.2275,27.33,78,74,9.52,MH,1736390117
240,tromso,69.6496,18.957,-5.99,68,100,2.57,NO,1736390118
241,polovinnoye,54.7914,65.9864,-4.41,93,100,6.75,RU,1736390119
242,new norfolk,-42.7826,147.0587,24.84,26,100,2.03,AU,1736390120
243,maloye ganyushkino,46.6,49.2667,-0.43,78,4,5.92,KZ,1736390121
244,nguigmi,14.2495,13.1092,16.73,30,59,5.62,NE,1736390122
245,robertsport,6.7533,-11.3686,26.67,82,3,1.8,LR,1736390123
246,nova sintra,14.8667,-24.7167,23.42,67,0,8.0,CV,1736390124
247,berezovyy,51.6667,135.7,-9.1,69,0,2.22,RU,1736390126
248,creel,27.75,-107.6333,0.17,100,100,1.49,MX,1736390127
249,istmina,5.1605,-76.684,22.58,99,68,1.17,CO,1736390128
250,newman,37.3138,-121.0208,10.59,69,3,0.45,US,1736389918
251,vila franca do campo,37.7167,-25.4333,18.23,95,100,8.03,PT,1736390130
252,alofi,-19.0595,-169.9187,25.94,94,75,5.66,NU,1736390131
253,grantsville,40.5999,-112.4644,0.16,70,100,1.54,US,1736390132
254,chernomorskoye,45.5039,32.6997,10.01,96,16,5.8,UA,1736390134
255,rifle,39.5347,-107.7831,-3.67,58,40,0.0,US,1736390136
256,antsiranana,-12.2787,49.2917,25.17,84,12,4.11,MG,1736390137
257,kulhudhuffushi,6.6221,73.07,27.72,76,49,7.62,MV,1736390139
258,lorengau,-2.0226,147.2712,30.19,66,65,2.67,PG,1736390140
259,preobrazheniye,42.9019,133.9064,-11.33,43,97,3.88,RU,1736390141
260,mulanje,-16.0316,35.5,21.31,92,100,2.51,MW,1736390142
261,tanout,14.9709,8.8879,15.5,29,100,6.4,NE,1736390143
262,la passe,45.5549,-0.8967,12.85,85,100,15.02,FR,1736390144
263,yeniseysk,58.4497,92.1703,-10.14,86,100,4.43,RU,1736390145
264,leeton,-34.5667,146.4,28.94,19,67,3.64,AU,1736390146
265,praia da vitoria,38.7333,-27.0667,19.14,88,75,11.92,PT,1736390147
266,san isidro de curuguaty,-24.5167,-55.7,22.86,44,2,1.72,PY,1736390148
267,lompoc,34.6391,-120.4579,12.23,66,0,0.0,US,1736390149
268,codrington,-38.2667,141.9667,23.66,51,100,1.38,AU,1736390150
269,promyshlennaya,54.9159,85.6385,-16.85,90,15,4.23,RU,1736390151
270,udachny,66.4167,112.4,-16.08,93,100,1.56,RU,1736390152
271,cadale,2.7603,46.3222,23.53,84,41,7.23,SO,1736390154
272,ath thawrah,35.8469,38.5443,8.72,53,5,1.29,SY,1736390155
273,kayangel,8.0823,134.7173,28.94,76,98,7.48,PW,1736390156
274,lyudinovo,53.8664,34.4478,0.09,92,100,3.1,RU,1736390157
275,kone,-21.0595,164.8658,28.94,48,76,2.67,NC,1736390159
276,puerto leguizamo,-0.1934,-74.7819,25.17,79,100,0.23,CO,1736390160
277,galle,6.0367,80.217,27.74,86,26,2.09,LK,1736390161
278,laguna,38.421,-121.4238,12.81,72,0,0.0,US,1736390162
279,pacasmayo,-7.4006,-79.5714,20.95,80,100,5.82,PE,1736390163
280,port douglas,-16.4833,145.4667,29.58,61,94,3.36,AU,1736390164
281,upata,8.0086,-62.3989,21.01,87,40,1.85,VE,1736390165
282,minas de matahambre,22.5887,-83.9447,17.95,76,64,4.11,CU,1736390166
283,pyapon,16.2833,95.6833,25.85,57,7,3.06,MM,1736390167
284,sinjar,36.3209,41.8754,7.84,52,7,1.37,IQ,1736390168
285,touros,-5.1989,-35.4608,26.42,82,100,5.32,BR,1736390169
286,nsanje,-16.92,35.262,24.18,85,100,2.13,MW,1736390170
287,greenville,35.6127,-77.3663,-1.04,62,10,1.34,US,1736390172
288,ardatov,55.2421,43.097,0.58,99,100,2.66,RU,1736390174
289,port macquarie,-31.4333,152.9167,26.71,63,79,2.24,AU,1736390175
290,arkalyk,50.2486,66.9114,-10.35,81,100,7.63,KZ,1736390176
291,tweed heads,-28.1817,153.547,25.02,88,40,5.14,AU,1736390177
292,colonia,50.9333,6.95,1.36,93,75,1.03,DE,1736390178
293,san patricio,28.017,-97.5169,6.97,44,100,3.36,US,1736390179
294,azovo,54.6997,73.0237,-8.32,95,100,4.63,RU,1736390180
295,hadibu,12.65,54.0333,22.33,71,24,4.45,YE,1736390181
296,bredstedt,54.6167,8.9833,1.05,88,100,1.94,DE,1736390182
297,palikir - national government center,6.9248,158.1611,30.47,84,75,8.23,FM,1736390183
298,bulgan,48.8125,103.5347,-17.7,96,24,0.35,MN,1736390184
299,bonthe,7.5264,-12.505,24.92,89,27,0.35,SL,1736390185
300,vila do maio,15.1333,-23.2167,23.27,69,0,7.48,CV,1736390186
301,khash,28.2211,61.2158,2.2,56,100,2.81,IR,1736390187
302,cockburn town,21.4612,-71.1419,23.97,76,97,4.58,TC,1736390188
303,alo,6.5486,4.2686,24.57,91,23,1.54,NG,1736390189
304,constitucion,-35.3333,-72.4167,14.15,85,0,5.01,CL,1736390193
305,coquimbo,-29.9533,-71.3436,22.85,92,0,0.0,CL,1736390129
306,palmerston,-12.486,130.9833,31.99,74,75,2.57,AU,1736390195
307,paradip garh,20.3167,86.6167,20.43,60,0,4.13,IN,1736390196
308,hastings,50.8552,0.5729,2.66,62,100,8.7,GB,1736390197
309,forster,-32.1667,152.5167,19.23,92,100,3.42,AU,1736390198
310,khandyga,62.6667,135.6,-35.61,95,61,0.54,RU,1736390199
311,kenora,49.8167,-94.4337,-10.46,79,100,6.71,CA,1736389948
312,huatusco,19.15,-96.95,14.12,99,97,0.04,MX,1736390201
313,nadym,65.5333,72.5167,-26.16,100,98,3.26,RU,1736390164
314,bairnsdale,-37.8333,147.6167,26.7,52,100,1.79,AU,1736390203
315,petropavlovsk-kamchatsky,53.0452,158.6483,-3.67,46,75,5.0,RU,1736390204
316,avarua,-21.2078,-159.775,26.03,89,75,11.32,CK,1736390205
317,brookings,44.3114,-96.7984,-8.0,79,0,3.6,US,1736390170
318,taltal,-25.4,-70.4833,19.61,83,8,1.05,CL,1736390208
319,pailon,-17.65,-62.75,22.21,99,100,2.04,BO,1736390209
320,lubang,13.8584,120.124,27.38,77,90,10.26,PH,1736390210
321,goure,13.9835,10.2704,14.8,30,28,4.04,NE,1736390211
322,greymouth,-42.4667,171.2,19.2,70,4,4.74,NZ,1736390212
323,yurimaguas,-5.9,-76.0833,24.39,87,95,0.85,PE,1736390213
324,la ronge,55.1001,-105.2842,2.14,69,75,9.26,CA,1736390214
325,howrah,22.5892,88.3103,15.0,82,1,3.09,IN,1736390215
326,chipinge,-20.1883,32.6236,18.19,91,100,1.47,ZW,1736390216
327,taguatinga,-12.3857,-46.5711,21.95,97,100,2.16,BR,1736390217
328,manaure,11.7751,-72.4445,26.55,79,4,7.08,CO,1736389679
329,cayang,11.0667,123.9833,28.43,76,39,4.04,PH,1736390219
330,hakui,36.8833,136.7833,3.47,71,100,12.93,JP,1736390220
331,pangai,-19.8,-174.35,28.06,65,75,4.63,TO,1736390221
332,san mariano,7.5,126.0,27.73,83,95,1.57,PH,1736390222
333,quelimane,-17.8786,36.8883,24.52,85,97,2.52,MZ,1736390223
334,richards bay,-28.783,32.0377,21.11,89,100,2.0,ZA,1736390224
335,vendome,47.8,1.0667,10.5,99,100,7.38,FR,1736390225
336,alesund,62.4723,6.1549,-2.36,80,40,2.57,NO,1736390166
337,kongolo,-5.3833,27.0,20.86,93,100,0.18,CD,1736390227
338,arkhara,49.4212,130.0842,-18.37,90,40,3.56,RU,1736390228
339,port pirie,-33.1833,138.0167,31.92,25,14,5.79,AU,1736390229
340,onguday,50.75,86.15,-11.19,92,100,0.49,RU,1736390230
341,kainantu,-6.2887,145.8655,24.42,70,82,1.57,PG,1736390231
342,port saint john's,-31.6229,29.5448,19.61,80,7,1.96,ZA,1736390232
343,mount pearl,47.5166,-52.7813,1.75,94,100,6.69,CA,1736390234
344,coueron,47.2151,-1.7217,12.23,93,100,6.69,FR,1736390235
345,spas-demensk,54.4122,34.0226,-1.13,94,92,2.74,RU,1736390236
346,puerto el triunfo,13.2833,-88.55,26.59,69,98,1.76,SV,1736390237
347,namibe,-15.1961,12.1522,20.53,84,99,1.95,AO,1736390122
348,lakhdenpokh'ya,61.5198,30.1992,-13.07,98,67,1.79,RU,1736390239
349,flying fish cove,-10.4217,105.6791,27.82,89,100,4.12,CX,1736390240
350,mahenge,-8.6833,36.7167,16.62,94,71,0.45,TZ,1736390241
351,usogorsk,63.4106,48.6872,-0.86,94,98,5.24,RU,1736390242
352,aszod,47.6517,19.4785,8.88,81,79,3.72,HU,1736390243
353,igarka,67.4667,86.5833,-26.49,99,100,3.08,RU,1736390244
354,tanhacu,-14.0214,-41.2481,21.48,91,100,0.98,BR,1736390245
355,saint-philippe,-21.3585,55.7679,26.18,84,42,5.73,RE,1736390246
356,buala,-8.145,159.5921,28.9,79,51,5.98,SB,1736390247
357,frenchville,-23.3442,150.5507,34.78,48,0,5.14,AU,1736390248
358,pisco,-13.7,-76.2167,20.03,88,0,7.2,PE,1736390249
359,jining,35.405,116.5814,1.28,19,2,3.93,CN,1736390250
360,la sarre,48.8002,-79.1996,-21.2,94,86,4.46,CA,1736390251
361,abqaiq,25.9371,49.6776,11.28,78,0,4.66,SA,1736390252
362,dwarka,22.2394,68.9678,18.61,51,0,5.3,IN,1736390253
363,as sulayyil,20.4607,45.5779,10.87,54,0,3.18,SA,1736390254
364,tamanrasset,22.785,5.5228,9.95,25,0,2.57,DZ,1736390255
365,ambagarh chauki,20.7833,80.7167,15.68,35,32,3.14,IN,1736390256
366,bathsheba,13.2167,-59.5167,24.34,94,20,2.57,BB,1736390257
367,karratha,-20.7377,116.8463,36.16,44,25,3.76,AU,1736389999
368,nicoya,10.1483,-85.452,24.5,83,100,5.1,CR,1736390259
369,port blair,11.6667,92.75,28.02,78,75,3.6,IN,1736390260
370,ocean city,39.2776,-74.5746,-3.9,53,11,4.92,US,1736390262
371,harstad,68.799,16.5293,-4.36,88,100,3.13,NO,1736390263
372,ghadamis,30.1337,9.5007,8.59,58,0,1.73,LY,1736390264
373,cootamundra,-34.65,148.0333,26.54,33,100,3.67,AU,1736390265
374,bandarbeyla,9.4942,50.8122,22.5,73,10,7.09,SO,1736390266
375,namie,37.4833,141.0,8.88,44,31,6.86,JP,1736390267
376,vallenar,-28.5708,-70.7581,18.11,66,0,1.77,CL,1736390268
377,fortuna,40.5982,-124.1573,10.19,94,0,0.0,US,1736390269
378,mutuali,-14.8706,37.0044,20.34,98,100,1.02,MZ,1736390270
379,naze,28.3667,129.4833,13.51,53,43,7.65,JP,1736390271
380,syanno,54.8106,29.7069,-1.36,81,95,2.92,BY,1736390272
381,yuzhno-kurilsk,44.0306,145.8556,-0.52,57,99,6.89,RU,1736390273
382,dubbo,-32.25,148.6167,29.07,37,86,4.63,AU,1736390274
383,ashkasham,36.6833,71.5333,-20.13,42,1,1.56,AF,1736390275
384,tual,-5.6667,132.75,29.13,71,76,3.61,ID,1736390276
385,tokombere,11.2271,13.4858,16.31,43,4,1.97,NG,1736390277
386,kourou,5.1552,-52.6478,24.26,81,71,2.52,GF,1736390232
387,boa vista,2.8197,-60.6733,27.99,54,0,3.09,BR,1736390083
388,hengchun,22.0042,120.7439,20.44,73,100,10.62,TW,1736390280
389,arara,-6.8283,-35.7583,21.55,88,36,2.52,BR,1736390281
390,tchintabaraden,15.8969,5.7985,17.25,27,100,5.73,NE,1736390282
391,vasto,42.1243,14.7059,9.16,77,6,3.01,IT,1736390283
392,nadi,-17.8,177.4167,30.0,62,40,6.17,FJ,1736390284
393,tralee,52.2704,-9.7026,-1.75,94,30,0.48,IE,1736390286
394,yanam,16.7333,82.2167,24.35,64,0,2.98,IN,1736390287
395,bangaon,23.0667,88.8167,17.43,46,0,3.62,IN,1736390288
396,itoman,26.1247,127.6694,18.21,51,75,7.72,JP,1736390289
397,awjilah,29.1081,21.2869,10.92,67,0,1.7,LY,1736390290
398,el granada,37.5027,-122.4694,14.36,48,20,4.63,US,1736390291
399,staryye ozinki,51.1786,49.6769,-0.49,89,100,9.88,RU,1736390292
400,sakaraha,-22.9,44.5333,22.83,78,6,0.55,MG,1736390293
401,valdivia,-39.8142,-73.2459,16.05,98,56,0.56,CL,1736389838
402,kadugli,11.0167,29.7167,18.91,25,5,3.4,SD,1736390295
403,mumford,5.2618,-0.759,26.31,88,50,2.41,GH,1736390296
404,steinkjer,64.193,11.3851,-17.84,96,40,0.92,NO,1736390297
405,chipata,-13.6333,32.65,18.46,98,100,1.85,ZM,1736390298
406,kerman,30.2832,57.0788,-2.08,86,0,2.06,IR,1736390299
407,suwayr,30.1171,40.3893,6.21,59,9,0.5,SA,1736390300
408,shingu,33.7333,135.9833,7.87,52,6,7.01,JP,1736390301
409,sidi bel abbes,35.1899,-0.6309,10.16,34,8,2.54,DZ,1736390302
410,stephenville,32.2207,-98.2023,1.75,59,0,1.54,US,1736390303
411,aswan,24.0934,32.907,14.61,51,0,3.09,EG,1736390304
412,coahuayana de hidalgo,18.7,-103.6583,22.89,93,100,1.5,MX,1736390305
413,mont-dore,-22.2833,166.5833,29.44,98,75,6.91,NC,1736390306
414,vryburg,-26.9566,24.7284,20.18,32,88,0.46,ZA,1736390307
415,mancio lima,-7.6142,-72.8958,24.04,100,75,1.03,BR,1736390308
416,phuthaditjhaba,-28.5242,28.8158,13.95,88,98,1.52,ZA,1736390309
417,san pedro pochutla,15.7333,-96.4667,25.95,83,1,1.38,MX,1736390310
418,arraial do cabo,-22.9661,-42.0278,24.17,87,40,3.37,BR,1736390311
419,bardai,11.65,7.2333,15.19,27,5,4.82,NG,1736390312
420,ko lanta,7.5336,99.0865,26.52,69,89,4.95,TH,1736390315
421,reggane,26.7158,0.1714,12.68,31,59,4.48,DZ,1736390316
422,south hedland,-20.4089,118.5983,36.96,34,59,7.2,AU,1736390317
423,nizhneangarsk,55.7833,109.55,-15.29,70,2,1.65,RU,1736390318
424,tirumala,13.6833,79.35,15.1,76,72,3.13,IN,1736390319
425,grand falls-windsor,48.9332,-55.6649,-0.83,93,94,1.94,CA,1736390320
426,nanchong,30.7951,106.0847,8.97,73,97,1.67,CN,1736390321
427,wellington,-41.2866,174.7756,17.81,55,40,6.17,NZ,1736390322
428,mohale's hoek,-30.1514,27.4769,16.12,54,82,1.03,LS,1736390323
429,itarantim,-15.6597,-40.0656,21.77,92,98,1.38,BR,1736390324
430,alexander city,32.944,-85.9539,2.88,56,0,4.12,US,1736390325
431,burang,30.25,81.1667,-12.47,58,0,1.91,CN,1736390326
432,ardestan,33.3761,52.3694,3.74,58,28,1.06,IR,1736390327
433,tsetserleg,47.475,101.4542,-16.07,74,65,1.18,MN,1736390328
434,darhan,49.4867,105.9228,-24.84,94,27,0.26,MN,1736390329
435,klaksvik,62.2266,-6.589,1.76,66,100,14.31,FO,1736390330
436,volterra,43.4003,10.86,11.95,81,78,6.11,IT,1736390331
437,mossel bay,-34.1831,22.146,15.96,80,12,2.19,ZA,1736390332
438,lutsk,50.7593,25.3424,0.52,85,100,2.96,UA,1736390333
439,cassa de la selva,41.8878,2.8752,15.84,41,0,4.63,ES,1736390334
440,holualoa,19.6228,-155.9522,25.46,79,20,3.09,US,1736390335
441,puerto deseado,-47.7503,-65.8938,16.64,29,72,10.87,AR,1736390336
442,polyarnyy,69.1989,33.4478,-12.7,99,99,2.86,RU,1736390337
443,northampton,40.8754,-75.2499,-6.7,54,11,2.24,US,1736390338
444,acapulco de juarez,16.8634,-99.8901,27.9,74,0,5.14,MX,1736390340
445,alotau,-10.3069,150.4462,30.69,66,100,2.52,PG,1736390341
446,oodweyne,9.4092,45.064,15.4,42,1,0.88,SO,1736390342
447,kassala,15.451,36.4,19.71,66,0,2.93,SD,1736390343
448,kuanda,56.3161,116.0806,-27.36,93,42,0.52,RU,1736390344
449,gizo,-8.103,156.8419,29.73,73,28,5.66,SB,1736390345
450,portland,45.5234,-122.6762,8.58,81,20,3.09,US,1736390120
451,angra do heroismo,38.65,-27.2167,19.34,88,75,11.77,PT,1736390347
452,kristiansund,63.1115,7.732,-7.64,86,13,1.54,NO,1736390348
453,penzance,50.1186,-5.5371,1.53,70,10,7.82,GB,1736390349
454,rio claro,-22.4114,-47.5614,19.3,90,52,1.89,BR,1736390351
455,nishinoomote,30.7333,131.0,8.31,87,75,6.69,JP,1736390352
456,mahina,-17.5065,-149.489,29.87,70,0,4.12,PF,1736390353
457,banjar,-8.19,114.9675,31.39,64,100,0.76,ID,1736390354
458,mccook,40.2019,-100.6257,-4.97,80,0,4.12,US,1736390355
459,praia,14.9215,-23.5087,21.3,83,0,4.63,CV,1736390356
460,batesville,35.7698,-91.641,-5.52,62,0,0.0,US,1736390357
461,talnakh,69.4865,88.3972,-25.34,100,66,1.8,RU,1736390360
462,saint-flour,45.0833,3.0,5.93,92,100,7.43,FR,1736390361
463,maceio,-9.6658,-35.7353,24.69,88,20,2.57,BR,1736390362
464,sitka,57.0531,-135.33,8.94,66,75,6.17,US,1736390363
465,mar del plata,-38.0023,-57.5575,19.49,85,0,8.49,AR,1736389942
466,kshenskiy,51.8408,37.7136,6.55,90,100,10.41,RU,1736390365
467,onega,63.9061,38.1404,-8.88,95,100,4.78,RU,1736390366
468,asheboro,35.7079,-79.8136,-2.33,53,75,2.06,US,1736390367
469,tokar,18.4254,37.729,21.78,67,30,4.78,SD,1736390368
470,yemva,62.59,50.8594,0.08,98,100,4.04,RU,1736390369
471,tsiombe,-25.3,45.4833,24.8,90,24,1.22,MG,1736390370
472,tazovsky,67.4667,78.7,-29.96,100,29,1.22,RU,1736390371
473,longboat key,27.4125,-82.659,10.01,78,0,1.54,US,1736390372
474,conde,-7.2597,-34.9075,26.7,78,20,3.09,BR,1736390373
475,joal-fadiout,14.1667,-16.8333,22.88,29,52,4.32,SN,1736390374
476,pandan,14.0453,124.1694,25.74,88,100,8.34,PH,1736390375
477,selfoss,63.9331,-20.9971,-14.27,82,0,2.97,IS,1736390376
478,barra de santo antonio,-9.4047,-35.5072,26.16,74,100,6.0,BR,1736390377
479,grootfontein,-19.5667,18.1167,21.76,78,100,1.54,NA,1736390378
480,taro,-8.3862,115.28,27.62,67,100,1.56,ID,1736390379
481,savanna-la-mar,18.219,-78.1332,23.85,87,86,2.32,JM,1736390380
482,guerrero negro,27.9769,-114.0611,15.68,49,37,6.83,MX,1736390381
483,san antonio oeste,-40.7319,-64.9477,24.01,58,0,6.61,AR,1736390384
484,taoudenni,22.6783,-3.9836,13.09,24,4,5.09,ML,1736390385
485,padang,-0.9492,100.3543,26.21,84,100,2.05,ID,1736390386
486,huarmey,-10.0681,-78.1522,21.58,83,100,3.72,PE,1736390387
487,rosarito,32.3333,-117.0333,19.54,42,6,2.72,MX,1736390388
488,xilin hot,43.9667,116.0333,-16.22,72,4,2.02,CN,1736390389
489,marsh harbour,26.5412,-77.0636,19.34,58,100,2.08,BS,1736390097
490,robore,-18.3333,-59.75,22.22,95,100,1.82,BO,1736390391
491,zouerate,22.7187,-12.4521,14.2,21,22,4.27,MR,1736390392
492,tobelo,1.7284,128.0095,29.35,70,99,2.22,ID,1736390393
493,wewak,-3.5534,143.6268,30.68,65,86,2.42,PG,1736390394
494,thief river falls,48.1191,-96.1812,-9.04,79,0,6.17,US,1736390395
495,roma,43.2128,-75.4557,-7.92,85,100,7.72,US,1736390254
496,kudat,6.8837,116.8477,30.16,84,20,2.24,MY,1736390397
497,luderitz,-26.6481,15.1594,14.96,84,0,6.25,NA,1736390398
498,kurchatov,51.6601,35.6521,2.31,97,100,4.74,RU,1736390399
499,kendari,-3.945,122.4989,31.79,60,55,1.1,ID,1736390401
500,gimbi,9.1667,35.8333,13.04,48,50,0.3,ET,1736390403
501,laizhou,37.1717,119.9214,-3.39,35,92,10.06,CN,1736390352
502,diamantina,-18.2494,-43.6003,16.79,98,98,1.45,BR,1736390405
503,tosontsengel,48.7567,98.2839,-24.3,95,72,1.27,MN,1736390406
504,lepsy,46.235,78.9456,-8.77,93,65,3.83,KZ,1736390407
505,alpatovo,43.7028,45.2415,2.87,76,5,2.51,RU,1736390408
506,hafar al-batin,28.4328,45.9708,8.32,93,0,3.09,SA,1736390409
507,goundam,16.4145,-3.6708,19.26,20,16,4.6,ML,1736390410
508,happy valley-goose bay,53.3168,-60.3315,3.17,87,100,7.2,CA,1736390255
509,kwekwe,-18.9281,29.8149,19.85,95,100,1.24,ZW,1736390412
510,krasnogorskiy,54.6025,61.231,-3.48,90,100,7.62,RU,1736390413
511,kingston,17.997,-76.7936,25.53,69,20,2.06,JM,1736390581
512,paracuru,-3.41,-39.0306,26.09,85,68,3.55,BR,1736390582
513,la rioja,42.25,-2.5,2.88,76,86,5.56,ES,1736390583
514,sao vicente,-23.9631,-46.3919,22.77,26,93,3.88,BR,1736390584
515,genhe,50.7833,121.5167,-16.29,79,99,1.13,CN,1736390585
516,stung treng,13.5259,105.9683,26.93,51,70,2.11,KH,1736390586
517,westport,41.1415,-73.3579,-4.82,56,0,5.66,US,1736390587
518,oranjemund,-28.55,16.4333,15.49,94,5,2.16,NA,1736390588
519,novyy urengoy,66.0833,76.6333,-25.85,100,87,1.54,RU,1736390589
520,tatvan,38.5067,42.2817,-4.76,91,19,2.83,TR,1736390590
521,zeya,53.75,127.2667,-13.3,72,57,0.92,RU,1736390592
522,el calafate,-50.3408,-72.2768,7.97,61,3,5.0,AR,1736390216
523,hilo,19.7297,-155.09,25.85,85,100,3.09,US,1736390302
524,east london,-33.0153,27.9116,18.86,81,0,2.77,ZA,1736390595
525,brosteni,47.2333,25.7,5.46,93,100,3.45,RO,1736390597
526,harran,36.86,39.0314,6.72,52,1,2.37,TR,1736390598
527,norfolk,42.1668,-71.2495,-6.58,59,100,3.58,US,1736390412
528,aldinga beach,-35.2793,138.4604,32.27,38,72,3.28,AU,1736390600
529,aginskoye,51.1,114.53,-18.11,85,25,2.5,RU,1736390601
530,harper,4.375,-7.7169,26.24,83,52,3.06,LR,1736390602
531,broken hill,-31.95,141.4333,32.39,21,100,4.18,AU,1736390603
532,mezhova,48.2532,36.7347,7.05,91,50,7.19,UA,1736390604
533,mizan teferi,6.9833,35.5833,16.74,52,15,0.77,ET,1736390605
534,kidal,18.4411,1.4078,17.35,21,0,5.22,ML,1736390606
535,murudeshwara,14.0943,74.4845,24.44,50,0,3.64,IN,1736390607
536,itaituba,-4.2761,-55.9836,22.87,99,100,0.34,BR,1736390608
537,aripuana,-9.1667,-60.6333,22.0,99,70,0.56,BR,1736390609
538,rodolfo sanchez taboada,31.7167,-116.5667,16.72,91,32,1.34,MX,1736390610
539,lakatoro,-16.0999,167.4164,28.3,74,51,5.44,VU,1736390612
540,fonte boa,-2.4959,-66.2662,23.88,98,95,1.23,BR,1736390613
541,gornopravdinsk,60.05,69.9,-21.13,99,100,2.26,RU,1736390614
542,saucillo,28.0167,-105.2833,6.19,27,56,4.05,MX,1736390525
543,pontianak,-0.0333,109.3333,26.99,89,75,1.03,ID,1736390617
544,nyurba,63.2842,118.3319,-24.76,95,100,2.48,RU,1736390618
545,verkhniye sergi,56.6469,59.5556,-3.14,94,100,6.28,RU,1736390619
546,chivilcoy,-34.8957,-60.0167,20.3,57,30,3.72,AR,1736390456
547,quellon,-43.1167,-73.6167,9.69,84,60,4.0,CL,1736390622
548,grande prairie,55.1667,-118.8027,1.1,69,75,6.17,CA,1736390589
549,praya,14.9215,-23.5087,21.3,83,0,4.63,CV,1736390356
550,rabak,13.1809,32.74,20.61,37,0,4.37,SD,1736390625
551,severo-yeniseyskiy,60.3725,93.0408,-9.86,90,100,3.82,RU,1736390626
552,sept-iles,50.2001,-66.3821,3.29,74,100,5.66,CA,1736390627
553,pitimbu,-7.4706,-34.8086,26.65,72,99,4.09,BR,1736390628
554,khabarovsk,48.4808,135.0928,-14.11,85,75,1.0,RU,1736390629
555,brooks,50.5834,-111.8851,-0.54,80,31,3.6,CA,1736390558
556,manado,1.487,124.8455,31.57,62,34,2.14,ID,1736390632
